{
  "type": "FeatureCollection",
  "generator": "overpass-ide",
  "copyright": "The data included in this document is from www.openstreetmap.org. The data is made available under ODbL.",
  "timestamp": "2020-12-01T22:37:02Z",
  "features": [
    {
      "type": "Feature",
      "properties": {
        "@id": "relation/11567903",
        "name": "Rákospalota-Újpest",
        "public_transport": "station",
        "railway": "station",
        "ref:mav": "279",
        "train": "yes",
        "type": "multipolygon",
        "wikidata": "Q3097464"
      },
      "geometry": {
        "type": "Polygon",
        "coordinates": [
          [
            [
              19.1120378,
              47.5662699
            ],
            [
              19.1120268,
              47.5661141
            ],
            [
              19.1118946,
              47.565805
            ],
            [
              19.1117971,
              47.5655511
            ],
            [
              19.1119938,
              47.5654484
            ],
            [
              19.1118493,
              47.5650512
            ],
            [
              19.1124475,
              47.5649549
            ],
            [
              19.1126633,
              47.5655108
            ],
            [
              19.1126776,
              47.5655648
            ],
            [
              19.1127829,
              47.5658769
            ],
            [
              19.1128289,
              47.5660135
            ],
            [
              19.1129304,
              47.5663144
            ],
            [
              19.1123696,
              47.566408
            ],
            [
              19.1120378,
              47.5662699
            ]
          ]
        ]
      },
      "id": "relation/11567903"
    },
    {
      "type": "Feature",
      "properties": {
        "@id": "way/800011709",
        "name": "Dunakeszi alsó",
        "public_transport": "station",
        "railway": "station",
        "ref:mav": "203",
        "train": "yes",
        "wikidata": "Q21866889",
        "wikipedia": "hu:Dunakeszi alsó megállóhely"
      },
      "geometry": {
        "type": "Polygon",
        "coordinates": [
          [
            [
              19.1294338,
              47.6094885
            ],
            [
              19.1286685,
              47.6075615
            ],
            [
              19.1282562,
              47.6067061
            ],
            [
              19.1281766,
              47.6065365
            ],
            [
              19.1282471,
              47.6065192
            ],
            [
              19.1283437,
              47.6064877
            ],
            [
              19.1284418,
              47.6064599
            ],
            [
              19.1289579,
              47.6074887
            ],
            [
              19.1291999,
              47.6080612
            ],
            [
              19.129758,
              47.6094308
            ],
            [
              19.1294338,
              47.6094885
            ]
          ]
        ]
      },
      "id": "way/800011709"
    },
    {
      "type": "Feature",
      "properties": {
        "@id": "node/25546152",
        "name": "Pécs",
        "name:cs": "Pětikostelí",
        "name:de": "Fünfkirchen",
        "name:hr": "Pečuh",
        "name:la": "Quinque Ecclesiae",
        "name:ru": "Печ",
        "name:sk": "Päťkostolie",
        "name:sr": "Печуј",
        "name:uk": "Печ",
        "old_name:la": "Sopianae",
        "operator": "MÁV",
        "railway": "station",
        "railway:ref": "PS",
        "ref:mav": "4953"
      },
      "geometry": {
        "type": "Point",
        "coordinates": [
          18.225298,
          46.0664531
        ]
      },
      "id": "node/25546152"
    },
    {
      "type": "Feature",
      "properties": {
        "@id": "node/27175073",
        "addr:city": "Sátoraljaújhely",
        "addr:housenumber": "19",
        "addr:postcode": "3980",
        "addr:street": "Fasor utca",
        "internet_access": "no",
        "name": "Sátoraljaújhely",
        "name:de": "Neustadt am Zeltberg",
        "name:sk": "Nové Mesto pod Šiatrom",
        "network": "Magyar Államvasutak Zrt.",
        "operator": "Magyar Államvasutak Zrt.",
        "railway": "station",
        "ref:mav": "901"
      },
      "geometry": {
        "type": "Point",
        "coordinates": [
          21.6576038,
          48.3858892
        ]
      },
      "id": "node/27175073"
    },
    {
      "type": "Feature",
      "properties": {
        "@id": "node/32642418",
        "name": "Cegléd",
        "name:de": "Zieglet",
        "name:ru": "Цеглед",
        "public_transport": "station",
        "railway": "station",
        "ref:mav": "909",
        "source": "survey",
        "uic_ref": "5500052",
        "wheelchair": "yes"
      },
      "geometry": {
        "type": "Point",
        "coordinates": [
          19.8062597,
          47.1828212
        ]
      },
      "id": "node/32642418"
    },
    {
      "type": "Feature",
      "properties": {
        "@id": "node/33122622",
        "name": "Balatonszentgyörgy",
        "railway": "station",
        "ref:mav": "3617"
      },
      "geometry": {
        "type": "Point",
        "coordinates": [
          17.2887861,
          46.692403
        ]
      },
      "id": "node/33122622"
    },
    {
      "type": "Feature",
      "properties": {
        "@id": "node/33123126",
        "name": "Balatonfenyves",
        "railway": "station",
        "ref:mav": "3613"
      },
      "geometry": {
        "type": "Point",
        "coordinates": [
          17.4827951,
          46.7134339
        ]
      },
      "id": "node/33123126"
    },
    {
      "type": "Feature",
      "properties": {
        "@id": "node/33123162",
        "name": "Fonyód",
        "name:de": "Fonjod",
        "public_transport": "station",
        "railway": "station",
        "ref:mav": "3610",
        "train": "yes"
      },
      "geometry": {
        "type": "Point",
        "coordinates": [
          17.5578771,
          46.7501333
        ]
      },
      "id": "node/33123162"
    },
    {
      "type": "Feature",
      "properties": {
        "@id": "node/33123282",
        "name": "Balatonboglár",
        "public_transport": "station",
        "railway": "station",
        "ref:mav": "3608",
        "train": "yes"
      },
      "geometry": {
        "type": "Point",
        "coordinates": [
          17.6471745,
          46.7760797
        ]
      },
      "id": "node/33123282"
    },
    {
      "type": "Feature",
      "properties": {
        "@id": "node/33123428",
        "name": "Balatonlelle",
        "public_transport": "station",
        "railway": "station",
        "ref:mav": "3606",
        "train": "yes"
      },
      "geometry": {
        "type": "Point",
        "coordinates": [
          17.694259,
          46.7874032
        ]
      },
      "id": "node/33123428"
    },
    {
      "type": "Feature",
      "properties": {
        "@id": "node/33123450",
        "name": "Balatonlelle felső",
        "railway": "station",
        "ref:mav": "3605"
      },
      "geometry": {
        "type": "Point",
        "coordinates": [
          17.7205812,
          46.7948759
        ]
      },
      "id": "node/33123450"
    },
    {
      "type": "Feature",
      "properties": {
        "@id": "node/33123473",
        "name": "Balatonföldvár",
        "public_transport": "station",
        "railway": "station",
        "ref:mav": "3393",
        "train": "yes",
        "wheelchair": "no"
      },
      "geometry": {
        "type": "Point",
        "coordinates": [
          17.8799757,
          46.8534022
        ]
      },
      "id": "node/33123473"
    },
    {
      "type": "Feature",
      "properties": {
        "@id": "node/33123807",
        "name": "Siófok",
        "operator": "MÁV",
        "platforms": "3",
        "public_transport": "station",
        "railway": "station",
        "railway:ref": "SI",
        "ref:mav": "1624",
        "train": "yes",
        "wheelchair": "no"
      },
      "geometry": {
        "type": "Point",
        "coordinates": [
          18.0535245,
          46.9078765
        ]
      },
      "id": "node/33123807"
    },
    {
      "type": "Feature",
      "properties": {
        "@id": "node/33127897",
        "addr:city": "Tab",
        "addr:housenumber": "1",
        "addr:postcode": "8660",
        "addr:street": "Kossuth Lajos utca",
        "name": "Tab",
        "railway": "station",
        "ref:mav": "6069"
      },
      "geometry": {
        "type": "Point",
        "coordinates": [
          18.0414685,
          46.7340954
        ]
      },
      "id": "node/33127897"
    },
    {
      "type": "Feature",
      "properties": {
        "@id": "node/50825206",
        "name": "Lövő",
        "railway": "station",
        "ref:mav": "2530"
      },
      "geometry": {
        "type": "Point",
        "coordinates": [
          16.7773639,
          47.5096453
        ]
      },
      "id": "node/50825206"
    },
    {
      "type": "Feature",
      "properties": {
        "@id": "node/60269240",
        "name": "Dorog",
        "name:de": "Drostdorf",
        "name:hu": "Dorog",
        "network": "Budapest-Esztergom (2-es vonal)",
        "operator": "MÁV",
        "public_transport": "station",
        "railway": "station",
        "ref:mav": "2835",
        "train": "yes"
      },
      "geometry": {
        "type": "Point",
        "coordinates": [
          18.7329078,
          47.7234758
        ]
      },
      "id": "node/60269240"
    },
    {
      "type": "Feature",
      "properties": {
        "@id": "node/60474457",
        "name": "Délegyháza",
        "railway": "station",
        "ref:mav": "457"
      },
      "geometry": {
        "type": "Point",
        "coordinates": [
          19.0608983,
          47.2536429
        ]
      },
      "id": "node/60474457"
    },
    {
      "type": "Feature",
      "properties": {
        "@id": "node/60498455",
        "name": "Nagylók",
        "railway": "station",
        "ref:mav": "251"
      },
      "geometry": {
        "type": "Point",
        "coordinates": [
          18.6356583,
          46.9791189
        ]
      },
      "id": "node/60498455"
    },
    {
      "type": "Feature",
      "properties": {
        "@id": "node/60964563",
        "name": "Érd felső",
        "public_transport": "stop_position",
        "railway": "station",
        "ref:mav": "242"
      },
      "geometry": {
        "type": "Point",
        "coordinates": [
          18.9226244,
          47.3812533
        ]
      },
      "id": "node/60964563"
    },
    {
      "type": "Feature",
      "properties": {
        "@id": "node/60964564",
        "name": "Tárnok",
        "public_transport": "stop_position",
        "railway": "station",
        "ref:mav": "828"
      },
      "geometry": {
        "type": "Point",
        "coordinates": [
          18.8734765,
          47.3653029
        ]
      },
      "id": "node/60964564"
    },
    {
      "type": "Feature",
      "properties": {
        "@id": "node/60964568",
        "name": "Kápolnásnyék",
        "public_transport": "stop_position",
        "railway": "station",
        "ref:mav": "832",
        "toilets:wheelchair": "yes",
        "wheelchair": "yes",
        "wheelchair:description": "fully+accessible+with+elevator+and+toilets"
      },
      "geometry": {
        "type": "Point",
        "coordinates": [
          18.6930763,
          47.2455849
        ]
      },
      "id": "node/60964568"
    },
    {
      "type": "Feature",
      "properties": {
        "@id": "node/60964571",
        "name": "Gárdony",
        "name:en": "Gardony",
        "public_transport": "stop_position",
        "railway": "station",
        "ref:mav": "835",
        "train": "yes",
        "wheelchair": "yes"
      },
      "geometry": {
        "type": "Point",
        "coordinates": [
          18.6247135,
          47.2060837
        ]
      },
      "id": "node/60964571"
    },
    {
      "type": "Feature",
      "properties": {
        "@id": "node/61086193",
        "name": "Szabadbattyán",
        "railway": "station",
        "ref:mav": "839"
      },
      "geometry": {
        "type": "Point",
        "coordinates": [
          18.3883521,
          47.1054078
        ]
      },
      "id": "node/61086193"
    },
    {
      "type": "Feature",
      "properties": {
        "@id": "node/61086232",
        "name": "Polgárdi-Ipartelepek",
        "railway": "station",
        "ref:mav": "1666"
      },
      "geometry": {
        "type": "Point",
        "coordinates": [
          18.3150251,
          47.0791646
        ]
      },
      "id": "node/61086232"
    },
    {
      "type": "Feature",
      "properties": {
        "@id": "node/61086242",
        "name": "Polgárdi",
        "railway": "station",
        "ref:mav": "1667"
      },
      "geometry": {
        "type": "Point",
        "coordinates": [
          18.2843025,
          47.0699508
        ]
      },
      "id": "node/61086242"
    },
    {
      "type": "Feature",
      "properties": {
        "@id": "node/61086286",
        "name": "Csajág",
        "railway": "station",
        "ref:mav": "1670"
      },
      "geometry": {
        "type": "Point",
        "coordinates": [
          18.1861279,
          47.0336494
        ]
      },
      "id": "node/61086286"
    },
    {
      "type": "Feature",
      "properties": {
        "@id": "node/71481036",
        "name": "Várpalota",
        "name:de": "Burgschloß",
        "public_transport": "station",
        "railway": "station",
        "ref:mav": "1635",
        "train": "yes"
      },
      "geometry": {
        "type": "Point",
        "coordinates": [
          18.1490396,
          47.1946796
        ]
      },
      "id": "node/71481036"
    },
    {
      "type": "Feature",
      "properties": {
        "@id": "node/71481373",
        "name": "Veszprém",
        "name:de": "Wesprim",
        "name:ru": "Веспрем",
        "name:sr": "Веспрем",
        "old_name:de": "Weißbrunn",
        "operator": "MÁV",
        "railway": "station",
        "railway:ref": "J",
        "ref:mav": "1638"
      },
      "geometry": {
        "type": "Point",
        "coordinates": [
          17.9108845,
          47.1190159
        ]
      },
      "id": "node/71481373"
    },
    {
      "type": "Feature",
      "properties": {
        "@id": "node/71526160",
        "name": "Városlőd-Kislőd",
        "railway": "station",
        "ref:mav": "1642"
      },
      "geometry": {
        "type": "Point",
        "coordinates": [
          17.6318218,
          47.1341871
        ]
      },
      "id": "node/71526160"
    },
    {
      "type": "Feature",
      "properties": {
        "@id": "node/71526236",
        "name": "Ajka",
        "name:de": "Eikau",
        "operator": "MÁV",
        "railway": "station",
        "ref:mav": "1643"
      },
      "geometry": {
        "type": "Point",
        "coordinates": [
          17.5731193,
          47.1058162
        ]
      },
      "id": "node/71526236"
    },
    {
      "type": "Feature",
      "properties": {
        "@id": "node/73838428",
        "name": "Boba",
        "railway": "station",
        "ref:mav": "1651"
      },
      "geometry": {
        "type": "Point",
        "coordinates": [
          17.1914333,
          47.1827729
        ]
      },
      "id": "node/73838428"
    },
    {
      "type": "Feature",
      "properties": {
        "@id": "node/73838548",
        "name": "Nemeskeresztúr",
        "railway": "station",
        "ref:mav": "2489"
      },
      "geometry": {
        "type": "Point",
        "coordinates": [
          17.1837752,
          47.093614
        ]
      },
      "id": "node/73838548"
    },
    {
      "type": "Feature",
      "properties": {
        "@id": "node/73838664",
        "name": "Ukk",
        "railway": "station",
        "ref:mav": "2488"
      },
      "geometry": {
        "type": "Point",
        "coordinates": [
          17.1962493,
          47.0407264
        ]
      },
      "id": "node/73838664"
    },
    {
      "type": "Feature",
      "properties": {
        "@id": "node/73838746",
        "name": "Sümeg",
        "railway": "station",
        "ref:mav": "2486"
      },
      "geometry": {
        "type": "Point",
        "coordinates": [
          17.2707665,
          46.9809595
        ]
      },
      "id": "node/73838746"
    },
    {
      "type": "Feature",
      "properties": {
        "@id": "node/73838764",
        "name": "Sümegi Bazaltbánya",
        "railway": "station",
        "ref:mav": "2485"
      },
      "geometry": {
        "type": "Point",
        "coordinates": [
          17.2925192,
          46.9523846
        ]
      },
      "id": "node/73838764"
    },
    {
      "type": "Feature",
      "properties": {
        "@id": "node/73838803",
        "name": "Uzsa",
        "railway": "station",
        "ref:mav": "2484"
      },
      "geometry": {
        "type": "Point",
        "coordinates": [
          17.33156,
          46.9203004
        ]
      },
      "id": "node/73838803"
    },
    {
      "type": "Feature",
      "properties": {
        "@id": "node/73838931",
        "name": "Jánosháza",
        "railway": "station",
        "ref:mav": "2490"
      },
      "geometry": {
        "type": "Point",
        "coordinates": [
          17.1718446,
          47.1155131
        ]
      },
      "id": "node/73838931"
    },
    {
      "type": "Feature",
      "properties": {
        "@id": "node/80221090",
        "name": "Badacsonytördemic-Szigliget",
        "old_name": "Nemestördemic; Nemestördemic-Szigliget",
        "operator": "MÁV",
        "railway": "station",
        "ref:mav": "2479"
      },
      "geometry": {
        "type": "Point",
        "coordinates": [
          17.4689981,
          46.8099095
        ]
      },
      "id": "node/80221090"
    },
    {
      "type": "Feature",
      "properties": {
        "@id": "node/80221098",
        "name": "Badacsony",
        "operator": "MÁV",
        "railway": "station",
        "ref:mav": "2477"
      },
      "geometry": {
        "type": "Point",
        "coordinates": [
          17.5066404,
          46.7885773
        ]
      },
      "id": "node/80221098"
    },
    {
      "type": "Feature",
      "properties": {
        "@id": "node/80221102",
        "name": "Badacsonytomaj",
        "operator": "MÁV",
        "platforms": "3",
        "railway": "station",
        "railway:ref": "T",
        "ref:mav": "2476"
      },
      "geometry": {
        "type": "Point",
        "coordinates": [
          17.5182914,
          46.8046567
        ]
      },
      "id": "node/80221102"
    },
    {
      "type": "Feature",
      "properties": {
        "@id": "node/80221134",
        "name": "Balatonakali-Dörgicse",
        "old_name": "Dörgicse-Akali",
        "railway": "station",
        "ref:mav": "1685",
        "wheelchair": "yes"
      },
      "geometry": {
        "type": "Point",
        "coordinates": [
          17.7478992,
          46.8796704
        ]
      },
      "id": "node/80221134"
    },
    {
      "type": "Feature",
      "properties": {
        "@id": "node/80221159",
        "name": "Aszófő",
        "operator": "MÁV",
        "railway": "station",
        "railway:ref": "AF",
        "ref:mav": "1681"
      },
      "geometry": {
        "type": "Point",
        "coordinates": [
          17.83254,
          46.9252496
        ]
      },
      "id": "node/80221159"
    },
    {
      "type": "Feature",
      "properties": {
        "@id": "node/80221174",
        "name": "Balatonfüred",
        "name:de": "Bad Plattensee",
        "name:fa": "بالاتنفورد",
        "name:hr": "Balatonfured",
        "name:lt": "Balatonfiuredas",
        "name:ru": "Балатонфюред",
        "name:sr": "Балатонфиред",
        "name:zh": "巴拉頓菲賴德",
        "platforms": "5",
        "railway": "station",
        "ref:mav": "1680",
        "wheelchair": "yes"
      },
      "geometry": {
        "type": "Point",
        "coordinates": [
          17.8832266,
          46.9563417
        ]
      },
      "id": "node/80221174"
    },
    {
      "type": "Feature",
      "properties": {
        "@id": "node/80221191",
        "name": "Alsóörs",
        "railway": "station",
        "ref:mav": "1677",
        "wheelchair": "no"
      },
      "geometry": {
        "type": "Point",
        "coordinates": [
          17.9749699,
          46.9849945
        ]
      },
      "id": "node/80221191"
    },
    {
      "type": "Feature",
      "properties": {
        "@id": "node/80221200",
        "name": "Balatonalmádi",
        "public_transport": "stop_position",
        "railway": "station",
        "ref": "2",
        "ref:mav": "1675",
        "train": "yes"
      },
      "geometry": {
        "type": "Point",
        "coordinates": [
          18.0150774,
          47.0282866
        ]
      },
      "id": "node/80221200"
    },
    {
      "type": "Feature",
      "properties": {
        "@id": "node/80221206",
        "name": "Balatonkenese",
        "public_transport": "station",
        "railway": "station",
        "ref:mav": "1673",
        "toilets:wheelchair": "yes",
        "train": "yes",
        "wheelchair": "limited"
      },
      "geometry": {
        "type": "Point",
        "coordinates": [
          18.1060228,
          47.0323802
        ]
      },
      "id": "node/80221206"
    },
    {
      "type": "Feature",
      "properties": {
        "@id": "node/80231925",
        "name": "Pétfürdő",
        "public_transport": "station",
        "railway": "station",
        "ref:mav": "1636",
        "train": "yes"
      },
      "geometry": {
        "type": "Point",
        "coordinates": [
          18.1218526,
          47.1673493
        ]
      },
      "id": "node/80231925"
    },
    {
      "type": "Feature",
      "properties": {
        "@id": "node/80231932",
        "name": "Hajmáskér",
        "railway": "station",
        "ref:mav": "1637"
      },
      "geometry": {
        "type": "Point",
        "coordinates": [
          18.0095018,
          47.1410037
        ]
      },
      "id": "node/80231932"
    },
    {
      "type": "Feature",
      "properties": {
        "@id": "node/80231939",
        "name": "Devecser",
        "name:de": "Dewetscher",
        "railway": "station",
        "ref:mav": "1646"
      },
      "geometry": {
        "type": "Point",
        "coordinates": [
          17.4347371,
          47.1124957
        ]
      },
      "id": "node/80231939"
    },
    {
      "type": "Feature",
      "properties": {
        "@id": "node/84785811",
        "name": "Kisújszállás",
        "railway": "station",
        "ref:mav": "1693",
        "source": "guess"
      },
      "geometry": {
        "type": "Point",
        "coordinates": [
          20.7514914,
          47.2240114
        ]
      },
      "id": "node/84785811"
    },
    {
      "type": "Feature",
      "properties": {
        "@id": "node/91583299",
        "name": "Lábatlan",
        "name:de": "Labeland",
        "name:hu": "Lábatlan",
        "public_transport": "station",
        "railway": "station",
        "ref:mav": "2842",
        "train": "yes"
      },
      "geometry": {
        "type": "Point",
        "coordinates": [
          18.515134,
          47.7521843
        ]
      },
      "id": "node/91583299"
    },
    {
      "type": "Feature",
      "properties": {
        "@id": "node/91628822",
        "name": "Tokod",
        "public_transport": "station",
        "railway": "station",
        "railway:ref": "TD",
        "ref:mav": "2847",
        "uic_ref": "5501628"
      },
      "geometry": {
        "type": "Point",
        "coordinates": [
          18.6747974,
          47.7347756
        ]
      },
      "id": "node/91628822"
    },
    {
      "type": "Feature",
      "properties": {
        "@id": "node/91628833",
        "name": "Süttő",
        "railway": "station",
        "ref:mav": "2840"
      },
      "geometry": {
        "type": "Point",
        "coordinates": [
          18.455,
          47.7612778
        ]
      },
      "id": "node/91628833"
    },
    {
      "type": "Feature",
      "properties": {
        "@id": "node/91628841",
        "name": "Neszmély",
        "railway": "station",
        "ref:mav": "2839"
      },
      "geometry": {
        "type": "Point",
        "coordinates": [
          18.3452469,
          47.734417
        ]
      },
      "id": "node/91628841"
    },
    {
      "type": "Feature",
      "properties": {
        "@id": "node/91686879",
        "name": "Almásfüzitő felső",
        "public_transport": "station",
        "railway": "station",
        "ref:mav": "3654",
        "train": "yes"
      },
      "geometry": {
        "type": "Point",
        "coordinates": [
          18.2180506,
          47.7311918
        ]
      },
      "id": "node/91686879"
    },
    {
      "type": "Feature",
      "properties": {
        "@id": "node/91686893",
        "name": "Szőny",
        "public_transport": "station",
        "railway": "station",
        "ref:mav": "3655",
        "train": "yes"
      },
      "geometry": {
        "type": "Point",
        "coordinates": [
          18.1773104,
          47.7357639
        ]
      },
      "id": "node/91686893"
    },
    {
      "type": "Feature",
      "properties": {
        "@id": "node/91687004",
        "name": "Győr",
        "name:de": "Raab",
        "name:ka": "დიორი",
        "name:ru": "Дьёр",
        "name:sr": "Ђер",
        "name:uk": "Дьйор",
        "operator": "MÁV",
        "public_transport": "station",
        "railway": "station",
        "railway:ref": "GV",
        "railway:ref:DB": "XMG",
        "ref:mav": "3661",
        "uic_name": "Györ",
        "uic_ref": "5500080",
        "wheelchair": "limited"
      },
      "geometry": {
        "type": "Point",
        "coordinates": [
          17.6348269,
          47.6820845
        ]
      },
      "id": "node/91687004"
    },
    {
      "type": "Feature",
      "properties": {
        "@id": "node/91711461",
        "name": "Hegyeshalom",
        "name:de": "Straß-Sommerein",
        "name:hr": "Štruos",
        "operator": "MÁV",
        "railway": "station",
        "railway:position": "187.8",
        "railway:position:exact": "187.845",
        "railway:ref": "HH",
        "railway:ref:ÖBB": "He",
        "ref:mav": "3667",
        "uic_name": "Hegyeshalom",
        "uic_ref": "5500017"
      },
      "geometry": {
        "type": "Point",
        "coordinates": [
          17.145299,
          47.9140794
        ]
      },
      "id": "node/91711461"
    },
    {
      "type": "Feature",
      "properties": {
        "@id": "node/91711522",
        "name": "Mosonmagyaróvár",
        "name:de": "Wieselburg-Ungarisch Altenburg",
        "name:hr": "Stari Grad",
        "name:la": "Ad Flexum",
        "name:ru": "Мошонмадьяровар",
        "public_transport": "station",
        "railway": "station",
        "ref:mav": "3665",
        "uic_name": "Mosonmagyarovar",
        "uic_ref": "5500016"
      },
      "geometry": {
        "type": "Point",
        "coordinates": [
          17.2675871,
          47.849421
        ]
      },
      "id": "node/91711522"
    },
    {
      "type": "Feature",
      "properties": {
        "@id": "node/91711539",
        "name": "Lébény-Mosonszentmiklós",
        "railway": "station",
        "ref:mav": "3663"
      },
      "geometry": {
        "type": "Point",
        "coordinates": [
          17.4255287,
          47.7558126
        ]
      },
      "id": "node/91711539"
    },
    {
      "type": "Feature",
      "properties": {
        "@id": "node/91711594",
        "name": "Kimle-Károlyháza",
        "public_transport": "station",
        "railway": "station",
        "ref:mav": "3664",
        "train": "yes"
      },
      "geometry": {
        "type": "Point",
        "coordinates": [
          17.3421734,
          47.8041361
        ]
      },
      "id": "node/91711594"
    },
    {
      "type": "Feature",
      "properties": {
        "@id": "node/92311503",
        "name": "Lepsény",
        "railway": "station",
        "ref:mav": "841"
      },
      "geometry": {
        "type": "Point",
        "coordinates": [
          18.2462804,
          46.9861756
        ]
      },
      "id": "node/92311503"
    },
    {
      "type": "Feature",
      "properties": {
        "@id": "node/92752136",
        "name": "Keszthely",
        "name:de": "Kesthell",
        "public_transport": "station",
        "railway": "station",
        "ref:mav": "2493",
        "train": "yes"
      },
      "geometry": {
        "type": "Point",
        "coordinates": [
          17.2474489,
          46.7578511
        ]
      },
      "id": "node/92752136"
    },
    {
      "type": "Feature",
      "properties": {
        "@id": "node/92752232",
        "name": "Vonyarcvashegy",
        "railway": "station",
        "ref:mav": "2496",
        "wheelchair": "yes"
      },
      "geometry": {
        "type": "Point",
        "coordinates": [
          17.3180657,
          46.7551496
        ]
      },
      "id": "node/92752232"
    },
    {
      "type": "Feature",
      "properties": {
        "@id": "node/92752269",
        "name": "Balatongyörök",
        "railway": "station",
        "ref:mav": "2497"
      },
      "geometry": {
        "type": "Point",
        "coordinates": [
          17.3542121,
          46.7518677
        ]
      },
      "id": "node/92752269"
    },
    {
      "type": "Feature",
      "properties": {
        "@id": "node/92752370",
        "name": "Balatonederics",
        "railway": "station",
        "ref:mav": "2499"
      },
      "geometry": {
        "type": "Point",
        "coordinates": [
          17.3851274,
          46.802627
        ]
      },
      "id": "node/92752370"
    },
    {
      "type": "Feature",
      "properties": {
        "@id": "node/92829744",
        "name": "Sárbogárd",
        "name:de": "Bochart",
        "name:sr": "Šarbogard",
        "railway": "station",
        "ref:mav": "252"
      },
      "geometry": {
        "type": "Point",
        "coordinates": [
          18.6118127,
          46.8967414
        ]
      },
      "id": "node/92829744"
    },
    {
      "type": "Feature",
      "properties": {
        "@id": "node/92829746",
        "name": "Sásd",
        "name:de": "Schaschd",
        "name:hr": "Šaš",
        "old_name:de": "Ried",
        "public_transport": "station",
        "railway": "station",
        "ref:mav": "4944",
        "train": "yes"
      },
      "geometry": {
        "type": "Point",
        "coordinates": [
          18.1044834,
          46.2572582
        ]
      },
      "id": "node/92829746"
    },
    {
      "type": "Feature",
      "properties": {
        "@id": "node/93548551",
        "name": "Szil-Sopronnémeti",
        "operator": "GySEV",
        "public_transport": "station",
        "railway": "station",
        "railway:ref": "IL",
        "ref:mav": "65420"
      },
      "geometry": {
        "type": "Point",
        "coordinates": [
          17.2096613,
          47.5333512
        ]
      },
      "id": "node/93548551"
    },
    {
      "type": "Feature",
      "properties": {
        "@id": "node/93548712",
        "name": "Vép",
        "railway": "station",
        "ref:mav": "65415"
      },
      "geometry": {
        "type": "Point",
        "coordinates": [
          16.7269689,
          47.2360368
        ]
      },
      "id": "node/93548712"
    },
    {
      "type": "Feature",
      "properties": {
        "@id": "node/93800918",
        "name": "Mosonszolnok",
        "railway": "station",
        "ref:mav": "65416"
      },
      "geometry": {
        "type": "Point",
        "coordinates": [
          17.1605574,
          47.8527274
        ]
      },
      "id": "node/93800918"
    },
    {
      "type": "Feature",
      "properties": {
        "@id": "node/93800919",
        "name": "Jánossomorja",
        "railway": "station",
        "ref:mav": "65417"
      },
      "geometry": {
        "type": "Point",
        "coordinates": [
          17.1376402,
          47.7891069
        ]
      },
      "id": "node/93800919"
    },
    {
      "type": "Feature",
      "properties": {
        "@id": "node/93800924",
        "name": "Bősárkány",
        "operator": "GYSEV",
        "railway": "station",
        "ref:mav": "65419"
      },
      "geometry": {
        "type": "Point",
        "coordinates": [
          17.2341386,
          47.6854543
        ]
      },
      "id": "node/93800924"
    },
    {
      "type": "Feature",
      "properties": {
        "@id": "node/93800925",
        "addr:city": "Csorna",
        "addr:housenumber": "1",
        "addr:postcode": "9300",
        "addr:street": "Aradi utca",
        "internet_access": "wlan",
        "name": "Csorna",
        "name:de": "Gschirnau",
        "operator": "GySEV",
        "public_transport": "station",
        "railway": "station",
        "railway:ref": "CS",
        "ref:mav": "1905",
        "uic_ref": "5502576",
        "website": "https://www2.gysev.hu/gysev-szolgaltatasok/allomasok-penztarak/csorna-vasutallomas",
        "wheelchair": "limited",
        "wikidata": "Q21876823",
        "wikipedia": "hu:Csorna vasútállomás"
      },
      "geometry": {
        "type": "Point",
        "coordinates": [
          17.2489622,
          47.601887
        ]
      },
      "id": "node/93800925"
    },
    {
      "type": "Feature",
      "properties": {
        "@id": "node/93800933",
        "name": "Beled",
        "railway": "station",
        "ref:mav": "65423"
      },
      "geometry": {
        "type": "Point",
        "coordinates": [
          17.0846233,
          47.4666596
        ]
      },
      "id": "node/93800933"
    },
    {
      "type": "Feature",
      "properties": {
        "@id": "node/93800938",
        "name": "Répcelak",
        "railway": "station",
        "ref:mav": "65396"
      },
      "geometry": {
        "type": "Point",
        "coordinates": [
          17.0090068,
          47.4190452
        ]
      },
      "id": "node/93800938"
    },
    {
      "type": "Feature",
      "properties": {
        "@id": "node/93800945",
        "name": "Hegyfalu",
        "public_transport": "station",
        "railway": "station",
        "ref:mav": "65428"
      },
      "geometry": {
        "type": "Point",
        "coordinates": [
          16.8988099,
          47.3579897
        ]
      },
      "id": "node/93800945"
    },
    {
      "type": "Feature",
      "properties": {
        "@id": "node/93800949",
        "name": "Ölbő-Alsószeleste",
        "public_transport": "station",
        "railway": "station",
        "ref:mav": "65430"
      },
      "geometry": {
        "type": "Point",
        "coordinates": [
          16.843324,
          47.3005636
        ]
      },
      "id": "node/93800949"
    },
    {
      "type": "Feature",
      "properties": {
        "@id": "node/93800951",
        "name": "Porpác",
        "railway": "station",
        "ref:mav": "2888"
      },
      "geometry": {
        "type": "Point",
        "coordinates": [
          16.8331959,
          47.238795
        ]
      },
      "id": "node/93800951"
    },
    {
      "type": "Feature",
      "properties": {
        "@id": "node/93800956",
        "name": "Szombathely",
        "name:de": "Steinamanger",
        "name:hr": "Sambotel",
        "name:la": "Savaria",
        "name:ru": "Сомбатхей",
        "name:sr": "Сомбатхељ",
        "old_name:de": "Stein am Anger",
        "operator": "GySEV",
        "railway": "station",
        "railway:ref": "SM",
        "ref:mav": "53589"
      },
      "geometry": {
        "type": "Point",
        "coordinates": [
          16.6328209,
          47.2373728
        ]
      },
      "id": "node/93800956"
    },
    {
      "type": "Feature",
      "properties": {
        "@id": "node/94074329",
        "name": "Vasvár",
        "public_transport": "station",
        "railway": "station",
        "ref:mav": "65395"
      },
      "geometry": {
        "type": "Point",
        "coordinates": [
          16.8000178,
          47.057112
        ]
      },
      "id": "node/94074329"
    },
    {
      "type": "Feature",
      "properties": {
        "@id": "node/94074423",
        "name": "Egervár-Vasboldogasszony",
        "public_transport": "station",
        "railway": "station",
        "ref:mav": "65442"
      },
      "geometry": {
        "type": "Point",
        "coordinates": [
          16.8620891,
          46.9418644
        ]
      },
      "id": "node/94074423"
    },
    {
      "type": "Feature",
      "properties": {
        "@id": "node/94074460",
        "name": "Püspökmolnári",
        "railway": "station",
        "ref:mav": "65398"
      },
      "geometry": {
        "type": "Point",
        "coordinates": [
          16.7685562,
          47.0849334
        ]
      },
      "id": "node/94074460"
    },
    {
      "type": "Feature",
      "properties": {
        "@id": "node/94074463",
        "name": "Pácsony",
        "railway": "station",
        "ref:mav": "65440"
      },
      "geometry": {
        "type": "Point",
        "coordinates": [
          16.8334734,
          47.0096781
        ]
      },
      "id": "node/94074463"
    },
    {
      "type": "Feature",
      "properties": {
        "@id": "node/94290568",
        "name": "Felsőrajk",
        "railway": "station",
        "ref:mav": "209"
      },
      "geometry": {
        "type": "Point",
        "coordinates": [
          16.9826863,
          46.6671786
        ]
      },
      "id": "node/94290568"
    },
    {
      "type": "Feature",
      "properties": {
        "@id": "node/94290630",
        "name": "Nagykanizsa",
        "railway": "station",
        "ref:mav": "3622",
        "website": "http://www.vasutallomasok.hu/allomas.php?az=ngkn"
      },
      "geometry": {
        "type": "Point",
        "coordinates": [
          16.987217,
          46.4406865
        ]
      },
      "id": "node/94290630"
    },
    {
      "type": "Feature",
      "properties": {
        "@id": "node/94290634",
        "name": "Újudvar",
        "railway": "station",
        "ref:mav": "213"
      },
      "geometry": {
        "type": "Point",
        "coordinates": [
          16.9799562,
          46.5193303
        ]
      },
      "id": "node/94290634"
    },
    {
      "type": "Feature",
      "properties": {
        "@id": "node/94290645",
        "name": "Gelse",
        "public_transport": "station",
        "railway": "station",
        "ref:mav": "211"
      },
      "geometry": {
        "type": "Point",
        "coordinates": [
          16.9825813,
          46.6002182
        ]
      },
      "id": "node/94290645"
    },
    {
      "type": "Feature",
      "properties": {
        "@id": "node/94290650",
        "name": "Zalaszentmihály-Pacsa",
        "railway": "station",
        "ref:mav": "207"
      },
      "geometry": {
        "type": "Point",
        "coordinates": [
          16.9518313,
          46.7232791
        ]
      },
      "id": "node/94290650"
    },
    {
      "type": "Feature",
      "properties": {
        "@id": "node/94290654",
        "name": "Nagykapornak",
        "public_transport": "station",
        "railway": "station",
        "ref:mav": "2546"
      },
      "geometry": {
        "type": "Point",
        "coordinates": [
          16.9349507,
          46.8321624
        ]
      },
      "id": "node/94290654"
    },
    {
      "type": "Feature",
      "properties": {
        "@id": "node/94301795",
        "name": "Őrtilos",
        "railway": "station",
        "ref:mav": "219"
      },
      "geometry": {
        "type": "Point",
        "coordinates": [
          16.8875655,
          46.2977897
        ]
      },
      "id": "node/94301795"
    },
    {
      "type": "Feature",
      "properties": {
        "@id": "node/94301821",
        "name": "Gyékényes",
        "railway": "station",
        "ref:mav": "3836"
      },
      "geometry": {
        "type": "Point",
        "coordinates": [
          16.9551447,
          46.2491089
        ]
      },
      "id": "node/94301821"
    },
    {
      "type": "Feature",
      "properties": {
        "@id": "node/94528674",
        "name": "Kaposmérő",
        "railway": "station",
        "ref:mav": "3823"
      },
      "geometry": {
        "type": "Point",
        "coordinates": [
          17.6994858,
          46.3655204
        ]
      },
      "id": "node/94528674"
    },
    {
      "type": "Feature",
      "properties": {
        "@id": "node/94528727",
        "alt_name:de": "Ruppertsberg;Ruppertsburg",
        "name": "Kaposvár",
        "name:de": "Kopisch",
        "name:ru": "Капошвар",
        "name:sr": "Капошвар",
        "operator": "MÁV",
        "public_transport": "station",
        "railway": "station",
        "railway:ref": "KA",
        "ref:mav": "3821",
        "train": "yes",
        "wikidata": "Q12814852"
      },
      "geometry": {
        "type": "Point",
        "coordinates": [
          17.7948725,
          46.3526409
        ]
      },
      "id": "node/94528727"
    },
    {
      "type": "Feature",
      "properties": {
        "@id": "node/94722982",
        "name": "Vízvár",
        "railway": "station",
        "ref:mav": "224"
      },
      "geometry": {
        "type": "Point",
        "coordinates": [
          17.2392621,
          46.1015275
        ]
      },
      "id": "node/94722982"
    },
    {
      "type": "Feature",
      "properties": {
        "@id": "node/94730713",
        "name": "Középrigóc",
        "railway": "station",
        "ref:mav": "230"
      },
      "geometry": {
        "type": "Point",
        "coordinates": [
          17.5247092,
          45.9705317
        ]
      },
      "id": "node/94730713"
    },
    {
      "type": "Feature",
      "properties": {
        "@id": "node/94730718",
        "name": "Darány",
        "name:ru": "Дарань",
        "railway": "station",
        "ref:mav": "231"
      },
      "geometry": {
        "type": "Point",
        "coordinates": [
          17.5982893,
          45.9922343
        ]
      },
      "id": "node/94730718"
    },
    {
      "type": "Feature",
      "properties": {
        "@id": "node/94730730",
        "name": "Szigetvár",
        "name:de": "Inselburg",
        "name:hr": "Siget",
        "railway": "station",
        "ref:mav": "235"
      },
      "geometry": {
        "type": "Point",
        "coordinates": [
          17.8023004,
          46.0429982
        ]
      },
      "id": "node/94730730"
    },
    {
      "type": "Feature",
      "properties": {
        "@id": "node/94743561",
        "name": "Kiskorpád",
        "railway": "station",
        "ref:mav": "3825"
      },
      "geometry": {
        "type": "Point",
        "coordinates": [
          17.6077193,
          46.3620628
        ]
      },
      "id": "node/94743561"
    },
    {
      "type": "Feature",
      "properties": {
        "@id": "node/94743562",
        "name": "Jákó-Nagybajom",
        "railway": "station",
        "ref:mav": "3826"
      },
      "geometry": {
        "type": "Point",
        "coordinates": [
          17.5551156,
          46.3446904
        ]
      },
      "id": "node/94743562"
    },
    {
      "type": "Feature",
      "properties": {
        "@id": "node/94743595",
        "name": "Somogyszob",
        "name:ru": "Шомодьсоб",
        "railway": "station",
        "ref:mav": "3830"
      },
      "geometry": {
        "type": "Point",
        "coordinates": [
          17.3067484,
          46.289052
        ]
      },
      "id": "node/94743595"
    },
    {
      "type": "Feature",
      "properties": {
        "@id": "node/94743602",
        "name": "Szenta",
        "name:ru": "Сента",
        "network": "MÁV",
        "operator": "MÁV",
        "public_transport": "station",
        "railway": "station",
        "ref:mav": "3832",
        "train:route": "307"
      },
      "geometry": {
        "type": "Point",
        "coordinates": [
          17.1808273,
          46.2736722
        ]
      },
      "id": "node/94743602"
    },
    {
      "type": "Feature",
      "properties": {
        "@id": "node/94743609",
        "name": "Csurgó",
        "public_transport": "station",
        "railway": "station",
        "ref:mav": "3834"
      },
      "geometry": {
        "type": "Point",
        "coordinates": [
          17.0917873,
          46.2616551
        ]
      },
      "id": "node/94743609"
    },
    {
      "type": "Feature",
      "properties": {
        "@id": "node/94743620",
        "name": "Beleg",
        "name:ru": "Белег",
        "railway": "station",
        "ref:mav": "3828"
      },
      "geometry": {
        "type": "Point",
        "coordinates": [
          17.4208763,
          46.3167788
        ]
      },
      "id": "node/94743620"
    },
    {
      "type": "Feature",
      "properties": {
        "@id": "node/94939411",
        "name": "Zalakomár",
        "railway": "station",
        "ref:mav": "3625"
      },
      "geometry": {
        "type": "Point",
        "coordinates": [
          17.1879051,
          46.5298633
        ]
      },
      "id": "node/94939411"
    },
    {
      "type": "Feature",
      "properties": {
        "@id": "node/95043903",
        "name": "Sióvölgy",
        "railway": "station",
        "ref:mav": "1051"
      },
      "geometry": {
        "type": "Point",
        "coordinates": [
          18.0769527,
          46.9112319
        ]
      },
      "id": "node/95043903"
    },
    {
      "type": "Feature",
      "properties": {
        "@id": "node/95043905",
        "name": "Ádánd",
        "railway": "station",
        "ref:mav": "6073"
      },
      "geometry": {
        "type": "Point",
        "coordinates": [
          18.141328,
          46.8541532
        ]
      },
      "id": "node/95043905"
    },
    {
      "type": "Feature",
      "properties": {
        "@id": "node/95043959",
        "name": "Somogymeggyes",
        "railway": "station",
        "ref:mav": "5857"
      },
      "geometry": {
        "type": "Point",
        "coordinates": [
          17.9209795,
          46.7205087
        ]
      },
      "id": "node/95043959"
    },
    {
      "type": "Feature",
      "properties": {
        "@id": "node/95043968",
        "name": "Kisbárapáti",
        "railway": "station",
        "ref:mav": "5010"
      },
      "geometry": {
        "type": "Point",
        "coordinates": [
          17.8670762,
          46.6150348
        ]
      },
      "id": "node/95043968"
    },
    {
      "type": "Feature",
      "properties": {
        "@id": "node/95043970",
        "name": "Felsőmocsolád",
        "railway": "station",
        "ref:mav": "5009"
      },
      "geometry": {
        "type": "Point",
        "coordinates": [
          17.8212632,
          46.5606266
        ]
      },
      "id": "node/95043970"
    },
    {
      "type": "Feature",
      "properties": {
        "@id": "node/95043975",
        "name": "Mernye",
        "railway": "station",
        "ref:mav": "5008"
      },
      "geometry": {
        "type": "Point",
        "coordinates": [
          17.8321914,
          46.5095421
        ]
      },
      "id": "node/95043975"
    },
    {
      "type": "Feature",
      "properties": {
        "@id": "node/198841762",
        "alt_name": "Nagyállomás",
        "name": "Érd",
        "railway": "station",
        "ref:mav": "243"
      },
      "geometry": {
        "type": "Point",
        "coordinates": [
          18.9008123,
          47.3699821
        ]
      },
      "id": "node/198841762"
    },
    {
      "type": "Feature",
      "properties": {
        "@id": "node/243750413",
        "name": "Vámosgyörk",
        "railway": "station",
        "ref:mav": "930"
      },
      "geometry": {
        "type": "Point",
        "coordinates": [
          19.9284268,
          47.6862288
        ]
      },
      "id": "node/243750413"
    },
    {
      "type": "Feature",
      "properties": {
        "@id": "node/243750414",
        "addr:city": "Hatvan",
        "addr:housenumber": "2",
        "addr:postcode": "3000",
        "addr:street": "Boldogi út",
        "name": "Hatvan",
        "name:de": "Hottwan",
        "operator": "MÁV",
        "public_transport": "station",
        "railway": "station",
        "railway:ref": "HN",
        "ref:mav": "928",
        "uic_ref": "5511205",
        "website": "https://www.mavcsoport.hu/mav-start/belfoldi-utazas/vasutallomas/hatvan",
        "wikidata": "Q5191800",
        "wikipedia": "hu:Hatvan vasútállomás"
      },
      "geometry": {
        "type": "Point",
        "coordinates": [
          19.6709299,
          47.6632863
        ]
      },
      "id": "node/243750414"
    },
    {
      "type": "Feature",
      "properties": {
        "@id": "node/243750429",
        "name": "Gyöngyös",
        "name:de": "Gengeß",
        "railway": "station",
        "ref:mav": "1780"
      },
      "geometry": {
        "type": "Point",
        "coordinates": [
          19.9373395,
          47.7831695
        ]
      },
      "id": "node/243750429"
    },
    {
      "type": "Feature",
      "properties": {
        "@id": "node/243767049",
        "name": "Gyöngyös",
        "name:de": "Gengeß",
        "operator": "Egererdő Zrt.",
        "public_transport": "station",
        "railway": "station",
        "ref:mav": "1780",
        "start_date": "1928"
      },
      "geometry": {
        "type": "Point",
        "coordinates": [
          19.9334611,
          47.7840773
        ]
      },
      "id": "node/243767049"
    },
    {
      "type": "Feature",
      "properties": {
        "@id": "node/245485226",
        "name": "Veresegyház",
        "public_transport": "stop_position",
        "railway": "station",
        "ref:mav": "306",
        "train": "yes",
        "wheelchair": "no"
      },
      "geometry": {
        "type": "Point",
        "coordinates": [
          19.288202,
          47.6486175
        ]
      },
      "id": "node/245485226"
    },
    {
      "type": "Feature",
      "properties": {
        "@id": "node/247091858",
        "name": "Füzesabony",
        "name:de": "Wabing",
        "name:hu": "Füzesabony",
        "railway": "station",
        "ref:mav": "936",
        "wheelchair": "no"
      },
      "geometry": {
        "type": "Point",
        "coordinates": [
          20.414885,
          47.7512977
        ]
      },
      "id": "node/247091858"
    },
    {
      "type": "Feature",
      "properties": {
        "@id": "node/247091862",
        "name": "Mezőkövesd",
        "railway": "station",
        "ref:mav": "938"
      },
      "geometry": {
        "type": "Point",
        "coordinates": [
          20.5678794,
          47.7973858
        ]
      },
      "id": "node/247091862"
    },
    {
      "type": "Feature",
      "properties": {
        "@id": "node/267510373",
        "name": "Börgönd",
        "railway": "station",
        "railway:ref": "BOR",
        "ref:mav": "1652"
      },
      "geometry": {
        "type": "Point",
        "coordinates": [
          18.5150344,
          47.1400086
        ]
      },
      "id": "node/267510373"
    },
    {
      "type": "Feature",
      "properties": {
        "@id": "node/268196140",
        "name": "Ostffyasszonyfa",
        "railway": "station",
        "ref:mav": "2886"
      },
      "geometry": {
        "type": "Point",
        "coordinates": [
          17.0241916,
          47.2839657
        ]
      },
      "id": "node/268196140"
    },
    {
      "type": "Feature",
      "properties": {
        "@id": "node/268196808",
        "name": "Egyházasrádóc",
        "railway": "station",
        "ref:mav": "65390"
      },
      "geometry": {
        "type": "Point",
        "coordinates": [
          16.6197067,
          47.0908583
        ]
      },
      "id": "node/268196808"
    },
    {
      "type": "Feature",
      "properties": {
        "@id": "node/268202972",
        "name": "Püspökladány",
        "name:ru": "Пюшпёкладань",
        "public_transport": "station",
        "railway": "station",
        "ref:mav": "1697",
        "train": "yes",
        "uic_ref": "5500055"
      },
      "geometry": {
        "type": "Point",
        "coordinates": [
          21.1285016,
          47.3279072
        ]
      },
      "id": "node/268202972"
    },
    {
      "type": "Feature",
      "properties": {
        "@id": "node/268203181",
        "name": "Hajdúszoboszló",
        "railway": "station",
        "ref:mav": "1699",
        "uic_ref": "5500057"
      },
      "geometry": {
        "type": "Point",
        "coordinates": [
          21.4077686,
          47.4294368
        ]
      },
      "id": "node/268203181"
    },
    {
      "type": "Feature",
      "properties": {
        "@id": "node/268205235",
        "name": "Mezőtúr",
        "name:de": "Thur",
        "name:ru": "Мезётур",
        "railway": "station",
        "ref:mav": "7209",
        "source": "guess",
        "wheelchair": "yes"
      },
      "geometry": {
        "type": "Point",
        "coordinates": [
          20.6192168,
          47.0135542
        ]
      },
      "id": "node/268205235"
    },
    {
      "type": "Feature",
      "properties": {
        "@id": "node/268205508",
        "name": "Gyoma",
        "railway": "station",
        "ref:mav": "7211",
        "source": "guess",
        "wheelchair": "yes"
      },
      "geometry": {
        "type": "Point",
        "coordinates": [
          20.8224795,
          46.9247646
        ]
      },
      "id": "node/268205508"
    },
    {
      "type": "Feature",
      "properties": {
        "@id": "node/268205547",
        "name": "Mezőberény",
        "name:de": "Maisbrünn",
        "name:sk": "Poľný Berinčok",
        "railway": "station",
        "ref:mav": "7213",
        "wheelchair": "yes"
      },
      "geometry": {
        "type": "Point",
        "coordinates": [
          21.0129863,
          46.8147825
        ]
      },
      "id": "node/268205547"
    },
    {
      "type": "Feature",
      "properties": {
        "@id": "node/268212167",
        "name": "Nyírbogdány",
        "railway": "station",
        "ref:mav": "1714",
        "uic_ref": "5500961"
      },
      "geometry": {
        "type": "Point",
        "coordinates": [
          21.8547158,
          48.0822648
        ]
      },
      "id": "node/268212167"
    },
    {
      "type": "Feature",
      "properties": {
        "@id": "node/268212339",
        "name": "Záhony",
        "name:pl": "Zagony",
        "public_transport": "station",
        "railway": "station",
        "ref:mav": "1726",
        "uic_ref": "5500064"
      },
      "geometry": {
        "type": "Point",
        "coordinates": [
          22.1837559,
          48.4016962
        ]
      },
      "id": "node/268212339"
    },
    {
      "type": "Feature",
      "properties": {
        "@id": "node/268212593",
        "name": "Ajak",
        "railway": "station",
        "ref:mav": "1719"
      },
      "geometry": {
        "type": "Point",
        "coordinates": [
          22.0490593,
          48.1866875
        ]
      },
      "id": "node/268212593"
    },
    {
      "type": "Feature",
      "properties": {
        "@id": "node/268212762",
        "name": "Gégény",
        "railway": "station",
        "ref:mav": "1717"
      },
      "geometry": {
        "type": "Point",
        "coordinates": [
          21.9536653,
          48.1292773
        ]
      },
      "id": "node/268212762"
    },
    {
      "type": "Feature",
      "properties": {
        "@id": "node/268212804",
        "name": "Pátroha",
        "railway": "station",
        "ref": "2",
        "ref:mav": "1718"
      },
      "geometry": {
        "type": "Point",
        "coordinates": [
          21.9972361,
          48.158897
        ]
      },
      "id": "node/268212804"
    },
    {
      "type": "Feature",
      "properties": {
        "@id": "node/268213782",
        "name": "Nyékládháza",
        "railway": "station",
        "ref:mav": "943"
      },
      "geometry": {
        "type": "Point",
        "coordinates": [
          20.8404789,
          47.9923754
        ]
      },
      "id": "node/268213782"
    },
    {
      "type": "Feature",
      "properties": {
        "@id": "node/268213797",
        "name": "Miskolc-Tiszai",
        "operator": "MÁV",
        "railway": "station",
        "railway:ref": "MS",
        "ref:mav": "945",
        "wheelchair": "limited"
      },
      "geometry": {
        "type": "Point",
        "coordinates": [
          20.8099572,
          48.098539
        ]
      },
      "id": "node/268213797"
    },
    {
      "type": "Feature",
      "properties": {
        "@id": "node/268215883",
        "name": "Ózd",
        "railway": "station",
        "ref:mav": "847",
        "source": "guess"
      },
      "geometry": {
        "type": "Point",
        "coordinates": [
          20.2946673,
          48.2225304
        ]
      },
      "id": "node/268215883"
    },
    {
      "type": "Feature",
      "properties": {
        "@id": "node/268598665",
        "name": "Nagybátony",
        "public_transport": "station",
        "railway": "station",
        "railway:ref": "BA",
        "ref:mav": "982",
        "uic_ref": "5511841"
      },
      "geometry": {
        "type": "Point",
        "coordinates": [
          19.8193851,
          47.9798292
        ]
      },
      "id": "node/268598665"
    },
    {
      "type": "Feature",
      "properties": {
        "@id": "node/268602993",
        "addr:city": "Eger",
        "addr:housenumber": "1",
        "addr:postcode": "3300",
        "addr:street": "Állomás tér",
        "name": "Eger",
        "operator": "MÁV",
        "phone": "+36 1 3494949",
        "railway": "station",
        "railway:ref": "EP",
        "ref:mav": "1805",
        "wheelchair": "limited"
      },
      "geometry": {
        "type": "Point",
        "coordinates": [
          20.3818777,
          47.8916713
        ]
      },
      "id": "node/268602993"
    },
    {
      "type": "Feature",
      "properties": {
        "@id": "node/268603991",
        "name": "Vajta",
        "railway": "station",
        "ref:mav": "3853"
      },
      "geometry": {
        "type": "Point",
        "coordinates": [
          18.6480465,
          46.7141679
        ]
      },
      "id": "node/268603991"
    },
    {
      "type": "Feature",
      "properties": {
        "@id": "node/268670633",
        "name": "Onga",
        "network": "MÁV Zrt.",
        "operator": "MÁV Zrt.",
        "railway": "station",
        "ref:mav": "867"
      },
      "geometry": {
        "type": "Point",
        "coordinates": [
          20.9074244,
          48.1218103
        ]
      },
      "id": "node/268670633"
    },
    {
      "type": "Feature",
      "properties": {
        "@id": "node/269706702",
        "addr:city": "Rácalmás",
        "addr:postcode": "2459",
        "addr:street": "Állomás utca",
        "name": "Rácalmás",
        "operator": "MÁV",
        "railway": "station",
        "ref:mav": "3839"
      },
      "geometry": {
        "type": "Point",
        "coordinates": [
          18.9099046,
          47.0243143
        ]
      },
      "id": "node/269706702"
    },
    {
      "type": "Feature",
      "properties": {
        "@id": "node/269707015",
        "name": "Mezőfalva",
        "railway": "station",
        "ref:mav": "3843"
      },
      "geometry": {
        "type": "Point",
        "coordinates": [
          18.8106732,
          46.9053966
        ]
      },
      "id": "node/269707015"
    },
    {
      "type": "Feature",
      "properties": {
        "@id": "node/275275246",
        "name": "Zalaegerszeg",
        "operator": "MÁV",
        "public_transport": "station",
        "railway": "station",
        "railway:ref": "ZE",
        "ref:mav": "2507"
      },
      "geometry": {
        "type": "Point",
        "coordinates": [
          16.8483156,
          46.8332444
        ]
      },
      "id": "node/275275246"
    },
    {
      "type": "Feature",
      "properties": {
        "@id": "node/276516808",
        "addr:city": "Pápa",
        "addr:housenumber": "2",
        "addr:postcode": "8500",
        "addr:street": "Béke tér",
        "name": "Pápa",
        "operator": "MÁV",
        "public_transport": "station",
        "railway": "station",
        "railway:ref": "PA",
        "ref:mav": "2878",
        "toilets:wheelchair": "yes",
        "uic_ref": "5502121",
        "website": "https://www.mavcsoport.hu/mav-start/belfoldi-utazas/vasutallomas/papa",
        "wheelchair": "limited",
        "wheelchair:description": "Az állomásépület akadálymentes, a peronokhoz nem tartozik lift, csak lépcsőfelvonó",
        "wikidata": "Q21876801",
        "wikipedia": "hu:Pápa vasútállomás"
      },
      "geometry": {
        "type": "Point",
        "coordinates": [
          17.4593803,
          47.3407254
        ]
      },
      "id": "node/276516808"
    },
    {
      "type": "Feature",
      "properties": {
        "@id": "node/276517078",
        "name": "Vinár",
        "railway": "station",
        "ref:mav": "2881"
      },
      "geometry": {
        "type": "Point",
        "coordinates": [
          17.2824422,
          47.3056986
        ]
      },
      "id": "node/276517078"
    },
    {
      "type": "Feature",
      "properties": {
        "@id": "node/280520003",
        "name": "Kispest",
        "public_transport": "station",
        "railway": "station",
        "ref:mav": "283",
        "train": "yes"
      },
      "geometry": {
        "type": "Point",
        "coordinates": [
          19.1568668,
          47.4475635
        ]
      },
      "id": "node/280520003"
    },
    {
      "type": "Feature",
      "properties": {
        "@id": "node/287638744",
        "name": "Szokolya",
        "network": "MÁV-Start",
        "operator": "MÁV",
        "public_transport": "station",
        "railway": "station",
        "railway:ref": "SK",
        "ref:mav": "311",
        "train": "yes",
        "uic_ref": "5510611",
        "website": "https://www.mavcsoport.hu/mav-start/belfoldi-utazas/vasutallomas/szokolya",
        "wheelchair": "no",
        "wikidata": "Q22023363",
        "wikipedia": "hu:Szokolya vasútállomás"
      },
      "geometry": {
        "type": "Point",
        "coordinates": [
          19.0306788,
          47.8710406
        ]
      },
      "id": "node/287638744"
    },
    {
      "type": "Feature",
      "properties": {
        "@id": "node/289404886",
        "name": "Fülöpszállás",
        "railway": "station",
        "ref:mav": "463"
      },
      "geometry": {
        "type": "Point",
        "coordinates": [
          19.2469621,
          46.8209958
        ]
      },
      "id": "node/289404886"
    },
    {
      "type": "Feature",
      "properties": {
        "@id": "node/295489366",
        "name": "Kiskunhalas",
        "name:de": "Hallasch",
        "name:hr": "Olaš",
        "railway": "station",
        "ref:mav": "471",
        "source": "guess"
      },
      "geometry": {
        "type": "Point",
        "coordinates": [
          19.4940388,
          46.4335494
        ]
      },
      "id": "node/295489366"
    },
    {
      "type": "Feature",
      "properties": {
        "@id": "node/308760884",
        "name": "Kóny",
        "railway": "station",
        "ref:mav": "790",
        "wheelchair": "yes"
      },
      "geometry": {
        "type": "Point",
        "coordinates": [
          17.3595077,
          47.6328442
        ]
      },
      "id": "node/308760884"
    },
    {
      "type": "Feature",
      "properties": {
        "@id": "node/309591993",
        "name": "Simontornya",
        "railway": "station",
        "ref:mav": "1748"
      },
      "geometry": {
        "type": "Point",
        "coordinates": [
          18.5407311,
          46.7565642
        ]
      },
      "id": "node/309591993"
    },
    {
      "type": "Feature",
      "properties": {
        "@id": "node/309592393",
        "name": "Cece",
        "railway": "station",
        "ref:mav": "3852"
      },
      "geometry": {
        "type": "Point",
        "coordinates": [
          18.6237287,
          46.772172
        ]
      },
      "id": "node/309592393"
    },
    {
      "type": "Feature",
      "properties": {
        "@id": "node/321825183",
        "name": "Oroszlány",
        "name:de": "Ohreslahn",
        "name:hu": "Oroszlány",
        "railway": "station",
        "ref:mav": "2850"
      },
      "geometry": {
        "type": "Point",
        "coordinates": [
          18.3087838,
          47.4869797
        ]
      },
      "id": "node/321825183"
    },
    {
      "type": "Feature",
      "properties": {
        "@id": "node/321847466",
        "name": "Környe",
        "name:de": "Kirnau",
        "name:hu": "Környe",
        "railway": "station",
        "ref:mav": "2848"
      },
      "geometry": {
        "type": "Point",
        "coordinates": [
          18.3335999,
          47.5428679
        ]
      },
      "id": "node/321847466"
    },
    {
      "type": "Feature",
      "properties": {
        "@id": "node/321850118",
        "name": "Eplény",
        "railway": "station",
        "ref:mav": "818"
      },
      "geometry": {
        "type": "Point",
        "coordinates": [
          17.9215915,
          47.1927353
        ]
      },
      "id": "node/321850118"
    },
    {
      "type": "Feature",
      "properties": {
        "@id": "node/321885895",
        "name": "Veszprémvarsány",
        "railway": "station",
        "ref:mav": "814"
      },
      "geometry": {
        "type": "Point",
        "coordinates": [
          17.8185964,
          47.4433867
        ]
      },
      "id": "node/321885895"
    },
    {
      "type": "Feature",
      "properties": {
        "@id": "node/321885953",
        "name": "Tarjánpuszta",
        "railway": "station",
        "ref:mav": "812"
      },
      "geometry": {
        "type": "Point",
        "coordinates": [
          17.7888751,
          47.5045271
        ]
      },
      "id": "node/321885953"
    },
    {
      "type": "Feature",
      "properties": {
        "@id": "node/321886026",
        "name": "Pannonhalma",
        "railway": "station",
        "ref:mav": "811"
      },
      "geometry": {
        "type": "Point",
        "coordinates": [
          17.7404127,
          47.5477431
        ]
      },
      "id": "node/321886026"
    },
    {
      "type": "Feature",
      "properties": {
        "@id": "node/321886673",
        "name": "Bakonyszentlászló",
        "railway": "station",
        "ref:mav": "815"
      },
      "geometry": {
        "type": "Point",
        "coordinates": [
          17.8177933,
          47.3959898
        ]
      },
      "id": "node/321886673"
    },
    {
      "type": "Feature",
      "properties": {
        "@id": "node/324567423",
        "alt_name:de": "Zinkendorf",
        "name": "Nagycenk",
        "name:de": "Großzinkendorf",
        "name:hr": "Cinka",
        "railway": "station",
        "ref:mav": "2527"
      },
      "geometry": {
        "type": "Point",
        "coordinates": [
          16.6894127,
          47.6013585
        ]
      },
      "id": "node/324567423"
    },
    {
      "type": "Feature",
      "properties": {
        "@id": "node/335404400",
        "name": "Szentlőrinc",
        "railway": "station",
        "ref:mav": "4950"
      },
      "geometry": {
        "type": "Point",
        "coordinates": [
          17.9906863,
          46.0330993
        ]
      },
      "id": "node/335404400"
    },
    {
      "type": "Feature",
      "properties": {
        "@id": "node/335898836",
        "name": "Mohács",
        "railway": "station",
        "ref:mav": "4986"
      },
      "geometry": {
        "type": "Point",
        "coordinates": [
          18.683689,
          46.0025163
        ]
      },
      "id": "node/335898836"
    },
    {
      "type": "Feature",
      "properties": {
        "@id": "node/335898854",
        "name": "Bóly",
        "railway": "station",
        "ref:mav": "4985"
      },
      "geometry": {
        "type": "Point",
        "coordinates": [
          18.538347,
          45.9375817
        ]
      },
      "id": "node/335898854"
    },
    {
      "type": "Feature",
      "properties": {
        "@id": "node/336099929",
        "name": "Dombóvár alsó",
        "operator": "MÁV",
        "railway": "station",
        "railway:ref": "DM",
        "ref:mav": "1760"
      },
      "geometry": {
        "type": "Point",
        "coordinates": [
          18.1340735,
          46.3637356
        ]
      },
      "id": "node/336099929"
    },
    {
      "type": "Feature",
      "properties": {
        "@id": "node/337738743",
        "name": "Szentes",
        "public_transport": "station",
        "railway": "station",
        "ref:mav": "7230"
      },
      "geometry": {
        "type": "Point",
        "coordinates": [
          20.2725832,
          46.6576302
        ]
      },
      "id": "node/337738743"
    },
    {
      "type": "Feature",
      "properties": {
        "@id": "node/337745926",
        "name": "Hódmezővásárhely",
        "name:de": "Neumarkt an der Theiß",
        "name:ro": "Ionești",
        "operator": "MÁV",
        "railway": "station",
        "ref:mav": "7262"
      },
      "geometry": {
        "type": "Point",
        "coordinates": [
          20.3403165,
          46.4134875
        ]
      },
      "id": "node/337745926"
    },
    {
      "type": "Feature",
      "properties": {
        "@id": "node/338000585",
        "name": "Nagyatád",
        "public_transport": "station",
        "railway": "station",
        "ref:mav": "260"
      },
      "geometry": {
        "type": "Point",
        "coordinates": [
          17.3542785,
          46.2264875
        ]
      },
      "id": "node/338000585"
    },
    {
      "type": "Feature",
      "properties": {
        "@id": "node/340413312",
        "name": "Pécs-Külváros",
        "railway": "station",
        "ref:mav": "4954"
      },
      "geometry": {
        "type": "Point",
        "coordinates": [
          18.2402321,
          46.0717346
        ]
      },
      "id": "node/340413312"
    },
    {
      "type": "Feature",
      "properties": {
        "@id": "node/342152127",
        "name": "Mecsekalja-Cserkút",
        "railway": "station",
        "ref:mav": "4952"
      },
      "geometry": {
        "type": "Point",
        "coordinates": [
          18.1519161,
          46.0602316
        ]
      },
      "id": "node/342152127"
    },
    {
      "type": "Feature",
      "properties": {
        "@id": "node/342155899",
        "name": "Bicsérd",
        "railway": "station",
        "ref:mav": "4951"
      },
      "geometry": {
        "type": "Point",
        "coordinates": [
          18.0539127,
          46.0409744
        ]
      },
      "id": "node/342155899"
    },
    {
      "type": "Feature",
      "properties": {
        "@id": "node/342860167",
        "name": "Orosháza",
        "railway": "station",
        "ref:mav": "3890"
      },
      "geometry": {
        "type": "Point",
        "coordinates": [
          20.6641616,
          46.5662543
        ]
      },
      "id": "node/342860167"
    },
    {
      "type": "Feature",
      "properties": {
        "@id": "node/343658483",
        "name": "Bükkösd",
        "railway": "station",
        "ref:mav": "4948"
      },
      "geometry": {
        "type": "Point",
        "coordinates": [
          17.9997005,
          46.1130621
        ]
      },
      "id": "node/343658483"
    },
    {
      "type": "Feature",
      "properties": {
        "@id": "node/343659248",
        "name": "Abaliget",
        "railway": "station",
        "ref:mav": "4946"
      },
      "geometry": {
        "type": "Point",
        "coordinates": [
          18.0749423,
          46.1526476
        ]
      },
      "id": "node/343659248"
    },
    {
      "type": "Feature",
      "properties": {
        "@id": "node/343684611",
        "name": "Kiskunfélegyháza",
        "name:de": "Feulegaß",
        "operator": "MÁV",
        "platforms": "5",
        "public_transport": "station",
        "railway": "station",
        "railway:ref": "FH",
        "ref:mav": "6103",
        "source": "GPS"
      },
      "geometry": {
        "type": "Point",
        "coordinates": [
          19.8340665,
          46.707084
        ]
      },
      "id": "node/343684611"
    },
    {
      "type": "Feature",
      "properties": {
        "@id": "node/344302131",
        "addr:city": "Fertőszentmiklós",
        "addr:housenumber": "11",
        "addr:postcode": "9444",
        "addr:street": "Gesztenye sor",
        "internet_access": "wlan",
        "name": "Fertőszentmiklós",
        "name:de": "Sankt Niklaus am Neusiedlersee",
        "name:hr": "Mikloš",
        "name:hu": "Fertőszentmiklós",
        "operator": "GySEV",
        "public_transport": "station",
        "railway": "station",
        "railway:ref": "EM",
        "ref:mav": "800",
        "uic_ref": "5502667",
        "website": "https://www2.gysev.hu/gysev-szolgaltatasok/allomasok-penztarak/fertoszentmiklos-vasutallomas",
        "wikidata": "Q21876825",
        "wikipedia": "hu:Fertőszentmiklós vasútállomás"
      },
      "geometry": {
        "type": "Point",
        "coordinates": [
          16.860023,
          47.5998302
        ]
      },
      "id": "node/344302131"
    },
    {
      "type": "Feature",
      "properties": {
        "@id": "node/344319183",
        "name": "Tatabánya",
        "name:de": "Totiserkolonie",
        "name:ru": "Татабанья",
        "name:sr": "Татабања",
        "operator": "MÁV",
        "platforms": "4",
        "public_transport": "station",
        "railway": "station",
        "railway:ref": "BN",
        "railway:ref:DB": "XMBT",
        "ref:mav": "3649",
        "uic_name": "Tatabanya",
        "uic_ref": "5500009"
      },
      "geometry": {
        "type": "Point",
        "coordinates": [
          18.3928956,
          47.5854431
        ]
      },
      "id": "node/344319183"
    },
    {
      "type": "Feature",
      "properties": {
        "@id": "node/344464892",
        "name": "Decs",
        "railway": "station",
        "ref:mav": "3865"
      },
      "geometry": {
        "type": "Point",
        "coordinates": [
          18.7559064,
          46.2838339
        ]
      },
      "id": "node/344464892"
    },
    {
      "type": "Feature",
      "properties": {
        "@id": "node/344464908",
        "name": "Bátaszék",
        "railway": "station",
        "ref:mav": "3884"
      },
      "geometry": {
        "type": "Point",
        "coordinates": [
          18.7153619,
          46.2025708
        ]
      },
      "id": "node/344464908"
    },
    {
      "type": "Feature",
      "properties": {
        "@id": "node/344909742",
        "name": "Murakeresztúr",
        "railway": "station",
        "ref:mav": "3624"
      },
      "geometry": {
        "type": "Point",
        "coordinates": [
          16.8782504,
          46.364194
        ]
      },
      "id": "node/344909742"
    },
    {
      "type": "Feature",
      "properties": {
        "@id": "node/344928639",
        "name": "Medgyesegyháza",
        "public_transport": "station",
        "railway": "station",
        "ref:mav": "3922",
        "train": "yes"
      },
      "geometry": {
        "type": "Point",
        "coordinates": [
          21.030361,
          46.4958854
        ]
      },
      "id": "node/344928639"
    },
    {
      "type": "Feature",
      "properties": {
        "@id": "node/344972517",
        "name": "Villány",
        "railway": "station",
        "ref:mav": "4963"
      },
      "geometry": {
        "type": "Point",
        "coordinates": [
          18.4515631,
          45.8773029
        ]
      },
      "id": "node/344972517"
    },
    {
      "type": "Feature",
      "properties": {
        "@id": "node/344972535",
        "name": "Magyarbóly",
        "railway": "station",
        "ref:mav": "4964"
      },
      "geometry": {
        "type": "Point",
        "coordinates": [
          18.4920304,
          45.8340929
        ]
      },
      "id": "node/344972535"
    },
    {
      "type": "Feature",
      "properties": {
        "@id": "node/344999320",
        "name": "Somoskőújfalu",
        "public_transport": "station",
        "railway": "station",
        "railway:ref": "SO",
        "ref:mav": "1765",
        "uic_ref": "5511924"
      },
      "geometry": {
        "type": "Point",
        "coordinates": [
          19.8159051,
          48.1555223
        ]
      },
      "id": "node/344999320"
    },
    {
      "type": "Feature",
      "properties": {
        "@id": "node/345015012",
        "name": "Hejőkeresztúr",
        "railway": "station",
        "ref:mav": "1817",
        "source": "guess"
      },
      "geometry": {
        "type": "Point",
        "coordinates": [
          20.8693553,
          47.9603125
        ]
      },
      "id": "node/345015012"
    },
    {
      "type": "Feature",
      "properties": {
        "@id": "node/346249794",
        "name": "Székkutas",
        "railway": "station",
        "ref:mav": "3674"
      },
      "geometry": {
        "type": "Point",
        "coordinates": [
          20.5409109,
          46.5040967
        ]
      },
      "id": "node/346249794"
    },
    {
      "type": "Feature",
      "properties": {
        "@id": "node/346357569",
        "name": "Csorvás",
        "railway": "station",
        "ref:mav": "3892"
      },
      "geometry": {
        "type": "Point",
        "coordinates": [
          20.8410196,
          46.6234656
        ]
      },
      "id": "node/346357569"
    },
    {
      "type": "Feature",
      "properties": {
        "@id": "node/347352747",
        "name": "Gádoros",
        "railway": "station",
        "ref:mav": "6125",
        "source": "educated guess?"
      },
      "geometry": {
        "type": "Point",
        "coordinates": [
          20.5882726,
          46.656693
        ]
      },
      "id": "node/347352747"
    },
    {
      "type": "Feature",
      "properties": {
        "@id": "node/347635107",
        "name": "Szőreg",
        "railway": "station",
        "ref:mav": "3907"
      },
      "geometry": {
        "type": "Point",
        "coordinates": [
          20.1827684,
          46.2109326
        ]
      },
      "id": "node/347635107"
    },
    {
      "type": "Feature",
      "properties": {
        "@id": "node/347635119",
        "name": "Újszeged",
        "railway": "station",
        "ref:mav": "3906"
      },
      "geometry": {
        "type": "Point",
        "coordinates": [
          20.1601225,
          46.2419839
        ]
      },
      "id": "node/347635119"
    },
    {
      "type": "Feature",
      "properties": {
        "@id": "node/347635120",
        "name": "Apátfalva",
        "railway": "station",
        "ref:mav": "3912"
      },
      "geometry": {
        "type": "Point",
        "coordinates": [
          20.5805985,
          46.1752144
        ]
      },
      "id": "node/347635120"
    },
    {
      "type": "Feature",
      "properties": {
        "@id": "node/347635122",
        "name": "Makó",
        "name:de": "Makowa",
        "name:ro": "Macǎu",
        "railway": "station",
        "ref:mav": "3911",
        "wheelchair": "no"
      },
      "geometry": {
        "type": "Point",
        "coordinates": [
          20.4744813,
          46.2045881
        ]
      },
      "id": "node/347635122"
    },
    {
      "type": "Feature",
      "properties": {
        "@id": "node/352686556",
        "name": "Tiszatenyő",
        "railway": "station",
        "ref:mav": "7205",
        "wheelchair": "yes"
      },
      "geometry": {
        "type": "Point",
        "coordinates": [
          20.3697969,
          47.1357231
        ]
      },
      "id": "node/352686556"
    },
    {
      "type": "Feature",
      "properties": {
        "@id": "node/352686557",
        "name": "Szajol",
        "operator": "MÁV",
        "railway": "station",
        "railway:ref": "SJ",
        "ref:mav": "912",
        "wheelchair": "yes"
      },
      "geometry": {
        "type": "Point",
        "coordinates": [
          20.2954651,
          47.1703576
        ]
      },
      "id": "node/352686557"
    },
    {
      "type": "Feature",
      "properties": {
        "@id": "node/354578892",
        "name": "Godisa",
        "railway": "station",
        "ref:mav": "4945"
      },
      "geometry": {
        "type": "Point",
        "coordinates": [
          18.1046737,
          46.2233061
        ]
      },
      "id": "node/354578892"
    },
    {
      "type": "Feature",
      "properties": {
        "@id": "node/354597184",
        "name": "Mágocs-Alsómocsolád",
        "railway": "station",
        "ref:mav": "3875"
      },
      "geometry": {
        "type": "Point",
        "coordinates": [
          18.2237073,
          46.3070001
        ]
      },
      "id": "node/354597184"
    },
    {
      "type": "Feature",
      "properties": {
        "@id": "node/355209315",
        "name": "Vásárosdombó",
        "public_transport": "station",
        "railway": "station",
        "ref:mav": "4731",
        "train": "yes"
      },
      "geometry": {
        "type": "Point",
        "coordinates": [
          18.138684,
          46.3102244
        ]
      },
      "id": "node/355209315"
    },
    {
      "type": "Feature",
      "properties": {
        "@id": "node/355873876",
        "name": "Komló",
        "name:de": "Kumlau",
        "railway": "station",
        "ref:mav": "4969"
      },
      "geometry": {
        "type": "Point",
        "coordinates": [
          18.2646266,
          46.1891425
        ]
      },
      "id": "node/355873876"
    },
    {
      "type": "Feature",
      "properties": {
        "@id": "node/367073676",
        "name": "Poroszló",
        "railway": "station",
        "ref:mav": "2757",
        "wheelchair": "no"
      },
      "geometry": {
        "type": "Point",
        "coordinates": [
          20.6546582,
          47.6578819
        ]
      },
      "id": "node/367073676"
    },
    {
      "type": "Feature",
      "properties": {
        "@id": "node/370613835",
        "name": "Szendrő",
        "public_transport": "station",
        "railway": "station",
        "ref:mav": "854",
        "train": "yes"
      },
      "geometry": {
        "type": "Point",
        "coordinates": [
          20.7213315,
          48.4008152
        ]
      },
      "id": "node/370613835"
    },
    {
      "type": "Feature",
      "properties": {
        "@id": "node/370613863",
        "name": "Szalonna",
        "railway": "station",
        "ref:mav": "856"
      },
      "geometry": {
        "type": "Point",
        "coordinates": [
          20.7222668,
          48.4488347
        ]
      },
      "id": "node/370613863"
    },
    {
      "type": "Feature",
      "properties": {
        "@id": "node/374390903",
        "name": "Szerencs",
        "name:de": "Serentsch",
        "name:hu": "Szerencs",
        "railway": "station",
        "ref:mav": "951"
      },
      "geometry": {
        "type": "Point",
        "coordinates": [
          21.2147576,
          48.1558197
        ]
      },
      "id": "node/374390903"
    },
    {
      "type": "Feature",
      "properties": {
        "@id": "node/375892109",
        "name": "Gátér",
        "name:ru": "Гатер",
        "railway": "station",
        "ref:mav": "6120"
      },
      "geometry": {
        "type": "Point",
        "coordinates": [
          19.9624458,
          46.685093
        ]
      },
      "id": "node/375892109"
    },
    {
      "type": "Feature",
      "properties": {
        "@id": "node/386789459",
        "name": "Lenti",
        "name:de": "Nempthy",
        "name:hr": "Lentiba",
        "railway": "station",
        "ref:mav": "2515"
      },
      "geometry": {
        "type": "Point",
        "coordinates": [
          16.5295494,
          46.6211987
        ]
      },
      "id": "node/386789459"
    },
    {
      "type": "Feature",
      "properties": {
        "@id": "node/408857870",
        "name": "Kunfehértó",
        "railway": "station",
        "ref:mav": "1126"
      },
      "geometry": {
        "type": "Point",
        "coordinates": [
          19.416784,
          46.3560563
        ]
      },
      "id": "node/408857870"
    },
    {
      "type": "Feature",
      "properties": {
        "@id": "node/408863987",
        "name": "Jánoshalma",
        "railway": "station",
        "ref:mav": "1128"
      },
      "geometry": {
        "type": "Point",
        "coordinates": [
          19.3307258,
          46.292901
        ]
      },
      "id": "node/408863987"
    },
    {
      "type": "Feature",
      "properties": {
        "@id": "node/408865238",
        "name": "Mélykút",
        "railway": "station",
        "ref:mav": "1129"
      },
      "geometry": {
        "type": "Point",
        "coordinates": [
          19.3704542,
          46.2128635
        ]
      },
      "id": "node/408865238"
    },
    {
      "type": "Feature",
      "properties": {
        "@id": "node/408869286",
        "name": "Bácsbokod-Bácsborsód",
        "railway": "station",
        "ref:mav": "1133"
      },
      "geometry": {
        "type": "Point",
        "coordinates": [
          19.1594005,
          46.1155569
        ]
      },
      "id": "node/408869286"
    },
    {
      "type": "Feature",
      "properties": {
        "@id": "node/408870015",
        "name": "Baja",
        "name:de": "Frankenstadt",
        "railway": "station",
        "ref:mav": "1136"
      },
      "geometry": {
        "type": "Point",
        "coordinates": [
          18.9574444,
          46.1870051
        ]
      },
      "id": "node/408870015"
    },
    {
      "type": "Feature",
      "properties": {
        "@id": "node/408872396",
        "name": "Pörböly",
        "railway": "station",
        "ref:mav": "3885"
      },
      "geometry": {
        "type": "Point",
        "coordinates": [
          18.8284651,
          46.1990774
        ]
      },
      "id": "node/408872396"
    },
    {
      "type": "Feature",
      "properties": {
        "@id": "node/409004984",
        "name": "Sellye",
        "name:de": "Schelle",
        "name:hr": "Šeljin",
        "railway": "station",
        "ref:mav": "4993"
      },
      "geometry": {
        "type": "Point",
        "coordinates": [
          17.8591505,
          45.8731904
        ]
      },
      "id": "node/409004984"
    },
    {
      "type": "Feature",
      "properties": {
        "@id": "node/409020131",
        "name": "Harkakötöny",
        "railway": "station",
        "ref:mav": "1137"
      },
      "geometry": {
        "type": "Point",
        "coordinates": [
          19.6020258,
          46.4585786
        ]
      },
      "id": "node/409020131"
    },
    {
      "type": "Feature",
      "properties": {
        "@id": "node/409643296",
        "name": "Hidas-Bonyhád",
        "railway": "station",
        "ref:mav": "3881"
      },
      "geometry": {
        "type": "Point",
        "coordinates": [
          18.5230123,
          46.2692833
        ]
      },
      "id": "node/409643296"
    },
    {
      "type": "Feature",
      "properties": {
        "@id": "node/409646085",
        "name": "Máza-Szászvár",
        "railway": "station",
        "ref:mav": "3878"
      },
      "geometry": {
        "type": "Point",
        "coordinates": [
          18.4090496,
          46.2790568
        ]
      },
      "id": "node/409646085"
    },
    {
      "type": "Feature",
      "properties": {
        "@id": "node/410915394",
        "name": "Ócsa",
        "public_transport": "stop_position",
        "railway": "station",
        "ref:mav": "1145",
        "train": "yes"
      },
      "geometry": {
        "type": "Point",
        "coordinates": [
          19.2326792,
          47.3014077
        ]
      },
      "id": "node/410915394"
    },
    {
      "type": "Feature",
      "properties": {
        "@id": "node/410915725",
        "name": "Dabas",
        "public_transport": "stop_position",
        "railway": "station",
        "ref:mav": "1147",
        "train": "yes"
      },
      "geometry": {
        "type": "Point",
        "coordinates": [
          19.3295389,
          47.194661
        ]
      },
      "id": "node/410915725"
    },
    {
      "type": "Feature",
      "properties": {
        "@id": "node/410916603",
        "name": "Örkény",
        "public_transport": "stop_position",
        "railway": "station",
        "ref:mav": "6089",
        "train": "yes"
      },
      "geometry": {
        "type": "Point",
        "coordinates": [
          19.447092,
          47.1330297
        ]
      },
      "id": "node/410916603"
    },
    {
      "type": "Feature",
      "properties": {
        "@id": "node/410917436",
        "name": "Lajosmizse",
        "public_transport": "stop_position",
        "railway": "station",
        "ref:mav": "6092",
        "train": "yes"
      },
      "geometry": {
        "type": "Point",
        "coordinates": [
          19.5424174,
          47.0283303
        ]
      },
      "id": "node/410917436"
    },
    {
      "type": "Feature",
      "properties": {
        "@id": "node/410918807",
        "name": "Hetényegyháza",
        "public_transport": "stop_position",
        "railway": "station",
        "ref:mav": "6096",
        "train": "yes"
      },
      "geometry": {
        "type": "Point",
        "coordinates": [
          19.5948234,
          46.930844
        ]
      },
      "id": "node/410918807"
    },
    {
      "type": "Feature",
      "properties": {
        "@id": "node/410919136",
        "name": "Kecskemét alsó",
        "public_transport": "station",
        "railway": "station",
        "ref:mav": "490",
        "train": "yes"
      },
      "geometry": {
        "type": "Point",
        "coordinates": [
          19.6914683,
          46.8954652
        ]
      },
      "id": "node/410919136"
    },
    {
      "type": "Feature",
      "properties": {
        "@id": "node/411322676",
        "name": "Pincehely",
        "name:ru": "Пинцехей",
        "railway": "station",
        "ref:mav": "1750"
      },
      "geometry": {
        "type": "Point",
        "coordinates": [
          18.4300492,
          46.6812687
        ]
      },
      "id": "node/411322676"
    },
    {
      "type": "Feature",
      "properties": {
        "@id": "node/411403930",
        "name": "Tiszaalpár",
        "railway": "station",
        "ref:mav": "7203"
      },
      "geometry": {
        "type": "Point",
        "coordinates": [
          19.9823535,
          46.8184907
        ]
      },
      "id": "node/411403930"
    },
    {
      "type": "Feature",
      "properties": {
        "@id": "node/411403965",
        "name": "Tiszaalpár felső",
        "railway": "station",
        "ref:mav": "1901"
      },
      "geometry": {
        "type": "Point",
        "coordinates": [
          19.9766886,
          46.8360724
        ]
      },
      "id": "node/411403965"
    },
    {
      "type": "Feature",
      "properties": {
        "@id": "node/411412655",
        "name": "Tiszavárkony",
        "railway": "station",
        "ref:mav": "7198"
      },
      "geometry": {
        "type": "Point",
        "coordinates": [
          20.1427799,
          47.0600174
        ]
      },
      "id": "node/411412655"
    },
    {
      "type": "Feature",
      "properties": {
        "@id": "node/411736478",
        "name": "Kunszentmiklós-Tass",
        "railway": "station",
        "ref:mav": "460"
      },
      "geometry": {
        "type": "Point",
        "coordinates": [
          19.0999363,
          47.0183184
        ]
      },
      "id": "node/411736478"
    },
    {
      "type": "Feature",
      "properties": {
        "@id": "node/411737615",
        "name": "Kiskunlacháza",
        "railway": "station",
        "ref:mav": "458"
      },
      "geometry": {
        "type": "Point",
        "coordinates": [
          19.0440466,
          47.1849843
        ]
      },
      "id": "node/411737615"
    },
    {
      "type": "Feature",
      "properties": {
        "@id": "node/411751991",
        "name": "Kiskőrös",
        "name:de": "Körösch",
        "name:hr": "Kireš",
        "name:sk": "Malý Kereš",
        "railway": "station",
        "ref:mav": "466"
      },
      "geometry": {
        "type": "Point",
        "coordinates": [
          19.2974708,
          46.6261483
        ]
      },
      "id": "node/411751991"
    },
    {
      "type": "Feature",
      "properties": {
        "@id": "node/411796765",
        "name": "Balotaszállás",
        "railway": "station",
        "ref:mav": "472"
      },
      "geometry": {
        "type": "Point",
        "coordinates": [
          19.53292,
          46.3492441
        ]
      },
      "id": "node/411796765"
    },
    {
      "type": "Feature",
      "properties": {
        "@id": "node/412453433",
        "name": "Lengyeltóti",
        "old_name": "Lengyeltóti (Buzsák)",
        "public_transport": "station",
        "railway": "station",
        "ref:mav": "6084",
        "train": "yes"
      },
      "geometry": {
        "type": "Point",
        "coordinates": [
          17.6132993,
          46.6606777
        ]
      },
      "id": "node/412453433"
    },
    {
      "type": "Feature",
      "properties": {
        "@id": "node/412453655",
        "name": "Öreglak",
        "public_transport": "station",
        "railway": "station",
        "ref:mav": "6082",
        "train": "yes"
      },
      "geometry": {
        "type": "Point",
        "coordinates": [
          17.6325572,
          46.6088798
        ]
      },
      "id": "node/412453655"
    },
    {
      "type": "Feature",
      "properties": {
        "@id": "node/412453954",
        "name": "Somogyvár",
        "public_transport": "station",
        "railway": "station",
        "ref:mav": "6081",
        "train": "yes"
      },
      "geometry": {
        "type": "Point",
        "coordinates": [
          17.6347518,
          46.5805088
        ]
      },
      "id": "node/412453954"
    },
    {
      "type": "Feature",
      "properties": {
        "@id": "node/412453997",
        "name": "Osztopán",
        "public_transport": "station",
        "railway": "station",
        "ref:mav": "6079",
        "train": "yes"
      },
      "geometry": {
        "type": "Point",
        "coordinates": [
          17.6570512,
          46.5144855
        ]
      },
      "id": "node/412453997"
    },
    {
      "type": "Feature",
      "properties": {
        "@id": "node/412454417",
        "name": "Somogyjád",
        "public_transport": "station",
        "railway": "station",
        "ref:mav": "6078",
        "train": "yes"
      },
      "geometry": {
        "type": "Point",
        "coordinates": [
          17.6945178,
          46.4916095
        ]
      },
      "id": "node/412454417"
    },
    {
      "type": "Feature",
      "properties": {
        "@id": "node/412454445",
        "name": "Kaposfüred",
        "public_transport": "station",
        "railway": "station",
        "ref:mav": "6076",
        "train": "yes",
        "wikidata": "Q22132184"
      },
      "geometry": {
        "type": "Point",
        "coordinates": [
          17.7591273,
          46.4145855
        ]
      },
      "id": "node/412454445"
    },
    {
      "type": "Feature",
      "properties": {
        "@id": "node/412818756",
        "name": "Zalalövő",
        "railway": "station",
        "ref:mav": "2519"
      },
      "geometry": {
        "type": "Point",
        "coordinates": [
          16.5773591,
          46.8454686
        ]
      },
      "id": "node/412818756"
    },
    {
      "type": "Feature",
      "properties": {
        "@id": "node/415485997",
        "name": "Tiszafüred",
        "public_transport": "station",
        "railway": "station",
        "ref:mav": "2756",
        "wheelchair": "no"
      },
      "geometry": {
        "type": "Point",
        "coordinates": [
          20.7559886,
          47.6279045
        ]
      },
      "id": "node/415485997"
    },
    {
      "type": "Feature",
      "properties": {
        "@id": "node/415597016",
        "name": "Zajta",
        "railway": "station",
        "ref:mav": "439"
      },
      "geometry": {
        "type": "Point",
        "coordinates": [
          22.7951808,
          47.9031019
        ]
      },
      "id": "node/415597016"
    },
    {
      "type": "Feature",
      "properties": {
        "@id": "node/415597056",
        "name": "Penyige",
        "railway": "station",
        "ref:mav": "434"
      },
      "geometry": {
        "type": "Point",
        "coordinates": [
          22.5670901,
          47.9951975
        ]
      },
      "id": "node/415597056"
    },
    {
      "type": "Feature",
      "properties": {
        "@id": "node/415604461",
        "name": "Mátészalka",
        "name:de": "Salka",
        "railway": "station",
        "ref:mav": "2606",
        "source": "guess"
      },
      "geometry": {
        "type": "Point",
        "coordinates": [
          22.3136536,
          47.9507757
        ]
      },
      "id": "node/415604461"
    },
    {
      "type": "Feature",
      "properties": {
        "@id": "node/415604493",
        "name": "Nyírbátor",
        "name:de": "Bathor",
        "name:hu": "Nyírbátor",
        "railway": "station",
        "ref:mav": "2602",
        "source": "guess"
      },
      "geometry": {
        "type": "Point",
        "coordinates": [
          22.1310944,
          47.8425158
        ]
      },
      "id": "node/415604493"
    },
    {
      "type": "Feature",
      "properties": {
        "@id": "node/425898811",
        "name": "Fényeslitke",
        "railway": "station",
        "ref:mav": "1722",
        "uic_ref": "5500521"
      },
      "geometry": {
        "type": "Point",
        "coordinates": [
          22.1073441,
          48.2671212
        ]
      },
      "id": "node/425898811"
    },
    {
      "type": "Feature",
      "properties": {
        "@id": "node/445818043",
        "name": "Aba-Sárkeresztúr",
        "railway": "station",
        "ref:mav": "1655"
      },
      "geometry": {
        "type": "Point",
        "coordinates": [
          18.5426119,
          47.0237987
        ]
      },
      "id": "node/445818043"
    },